time,id,x,y,z,vx,vy,vz,yaw,pitch,roll,Team_id,Intent_id
0.1,1,1781.85,-2579.55,2879.7,0,0,0,3.141592654,0,0,1,1
0.1,2,1924.4,-1409.38,2958.33,0,0,0,3.141592654,0,0,1,1
0.1,3,1798.88,-3667.78,3103.21,0,0,0,3.141592654,0,0,1,1
0.1,4,965.77,-1752.17,2517.02,0,0,0,3.141592654,0,0,1,1
0.1,5,3373.8,4432.6,1709.13,0,0,0,3.141592654,0,0,2,2
0.1,16,4926.38,4403.05,2656.75,0,0,0,3.141592654,0,0,5,5
0.1,17,2497.44,4865.26,1860.86,0,0,0,3.141592654,0,0,5,5
0.1,15,3670.08,4467.07,2296.71,0,0,0,3.141592654,0,0,5,5
0.1,14,-4493.21,-961.82,2907.69,0,0,0,-1.570796327,0,0,4,4
0.1,13,-2876.06,-8.81,2897.89,0,0,0,-1.570796327,0,0,4,4
0.1,12,-2743.01,-2273.42,2489.7,0,0,0,1.570796327,0,0,4,4
0.1,11,3514.92,-2934.17,622.86,0,0,0,3.141592654,0,0,3,3
0.1,10,3617.56,-3569.22,903.38,0,0,0,3.141592654,0,0,3,3
0.1,9,3598.09,-2774.63,410.45,0,0,0,3.141592654,0,0,3,3
0.1,8,3298.46,2881.5,855.83,0,0,0,3.141592654,0,0,2,2
0.1,7,3270.87,3076.7,1267.29,0,0,0,3.141592654,0,0,2,2
0.1,6,3109.79,2934.4,1523.09,0,0,0,3.141592654,0,0,2,2
0.2,1,1779.35,-2579.55,2879.7,-25,3.06E-15,0,3.141592654,0,0,1,1
0.2,2,1922.4,-1409.38,2958.33,-20,2.45E-15,0,3.141592654,0,0,1,1
0.2,3,1796.88,-3667.78,3103.21,-20,2.45E-15,0,3.141592654,0,0,1,1
0.2,4,962.77,-1752.17,2517.02,-30,3.67E-15,0,3.141592654,0,0,1,1
0.2,5,3369.8,4432.6,1709.13,-40,4.90E-15,0,3.141592654,0,0,2,2
0.2,16,4926.28,4403.05,2656.75,-1,1.22E-16,0,3.141592654,0,0,5,5
0.2,17,2497.34,4865.26,1860.86,-1,1.22E-16,0,3.141592654,0,0,5,5
0.2,15,3669.98,4467.07,2296.71,-1,1.22E-16,0,3.141592654,0,0,5,5
0.2,14,-4493.21,-962.32,2907.69,-1.11E-15,-5,0,-1.570796327,0,0,4,4
0.2,13,-2876.06,-9.31,2897.89,-1.11E-15,-5,0,-1.570796327,0,0,4,4
0.2,12,-2743.01,-2272.92,2489.7,1.11E-15,5,0,1.570796327,0,0,4,4
0.2,11,3511.42,-2934.17,622.86,-35,4.29E-15,0,3.141592654,0,0,3,3
0.2,10,3614.56,-3569.22,903.38,-30,3.67E-15,0,3.141592654,0,0,3,3
0.2,9,3595.09,-2774.63,410.45,-30,3.67E-15,0,3.141592654,0,0,3,3
0.2,8,3294.46,2881.5,855.83,-40,4.90E-15,0,3.141592654,0,0,2,2
0.2,7,3266.87,3076.7,1267.29,-40,4.90E-15,0,3.141592654,0,0,2,2
0.2,6,3105.79,2934.4,1523.09,-40,4.90E-15,0,3.141592654,0,0,2,2
0.3,1,1776.85,-2579.55,2879.7,-25,3.06E-15,0,3.141592654,0,0,1,1
0.3,2,1920.4,-1409.38,2958.33,-20,2.45E-15,0,3.141592654,0,0,1,1
0.3,3,1794.88,-3667.78,3103.21,-20,2.45E-15,0,3.141592654,0,0,1,1
0.3,4,959.77,-1752.17,2517.02,-30,3.67E-15,0,3.141592654,0,0,1,1
0.3,5,3365.8,4432.6,1709.13,-40,4.90E-15,0,3.141592654,0,0,2,2
0.3,16,4926.18,4403.05,2656.75,-1,1.22E-16,0,3.141592654,0,0,5,5
0.3,17,2497.24,4865.26,1860.86,-1,1.22E-16,0,3.141592654,0,0,5,5
0.3,15,3669.88,4467.07,2296.71,-1,1.22E-16,0,3.141592654,0,0,5,5
0.3,14,-4493.21,-962.82,2907.69,-1.11E-15,-5,0,-1.570796327,0,0,4,4
0.3,13,-2876.06,-9.81,2897.89,-1.11E-15,-5,0,-1.570796327,0,0,4,4
0.3,12,-2743.01,-2272.42,2489.7,1.11E-15,5,0,1.570796327,0,0,4,4
0.3,11,3507.92,-2934.17,622.86,-35,4.29E-15,0,3.141592654,0,0,3,3
0.3,10,3611.56,-3569.22,903.38,-30,3.67E-15,0,3.141592654,0,0,3,3
0.3,9,3592.09,-2774.63,410.45,-30,3.67E-15,0,3.141592654,0,0,3,3
0.3,8,3290.46,2881.5,855.83,-40,4.90E-15,0,3.141592654,0,0,2,2
0.3,7,3262.87,3076.7,1267.29,-40,4.90E-15,0,3.141592654,0,0,2,2
0.3,6,3101.79,2934.4,1523.09,-40,4.90E-15,0,3.141592654,0,0,2,2
0.4,1,1774.629504,-2579.549995,2879.7,-22.20496215,9.58E-05,9.36E-09,3.141588337,-4.22E-10,-9.77E-05,1,1
0.4,2,1918.623113,-1409.379989,2958.33,-17.76886851,0.000215821,4.75E-08,3.141580508,-2.67E-09,-0.000220001,1,1
0.4,3,1793.101106,-3667.779987,3103.21,-17.78894074,0.00026882,7.36E-08,3.141577542,-4.14E-09,-0.000274027,1,1
0.4,4,957.0988829,-1752.169991,2517.02,-26.71117053,0.000179027,3.27E-08,3.141585951,-1.22E-09,-0.000182495,1,1
0.4,5,3362.23688,4432.600005,1709.13,-35.63119593,0.000107627,1.18E-08,3.141589633,-3.31E-10,-0.000109712,2,2
0.4,16,4926.094029,4403.050223,2656.750001,-0.859703144,0.00446215,2.03E-05,3.136402363,-2.36E-05,-0.004548547,5,5
0.4,17,2497.151978,4865.260272,1860.860002,-0.880207982,0.005435446,3.01E-05,3.135417548,-3.42E-05,-0.005540678,5,5
0.4,15,3669.795477,4467.070126,2296.71,-0.845226259,0.002518164,6.46E-06,3.138613384,-7.65E-06,-0.002566931,5,5
0.4,14,-4493.209945,-963.2650281,2907.69,0.001102201,-4.450280754,1.24E-06,-1.570548657,-2.78E-07,0.001123548,4,4
0.4,13,-2876.059951,-10.25719211,2897.89,0.000988239,-4.471920984,9.96E-07,-1.570575339,-2.23E-07,0.001007379,4,4
0.4,12,-2743.009965,-2271.978898,2489.7,0.000693319,4.411018534,4.90E-07,1.570639148,-1.11E-07,-0.000706747,4,4
0.4,11,3504.806109,-2934.170008,622.86,-31.13891211,-0.000153571,2.41E-08,-3.141587722,-7.73E-10,0.000156545,3,3
0.4,10,3608.888883,-3569.220009,903.38,-26.71117053,-0.000179027,3.27E-08,-3.141585951,-1.22E-09,0.000182495,3,3
0.4,9,3589.41688,-2774.630007,410.45,-26.73120307,-0.000143461,2.10E-08,-3.141587287,-7.85E-10,0.00014624,3,3
0.4,8,3286.895495,2881.499997,855.83,-35.64505505,-5.97E-05,3.70E-09,-3.141590979,-1.04E-10,6.09E-05,2,2
0.4,7,3259.305,3076.7,1267.29,-35.65,-1.09E-13,9.77E-12,-3.141592654,-2.74E-13,1.15E-13,2,2
0.4,6,3098.225495,2934.400003,1523.09,-35.64505505,5.97E-05,3.62E-09,3.141590979,-1.02E-10,-6.09E-05,2,2
0.5,1,1772.659161,-2579.549972,2879.7,-19.70342626,0.000376103,8.64E-08,3.141573565,-4.38E-09,-0.000296694,1,1
0.5,2,1917.045903,-1409.379937,2958.33,-15.77209899,0.000846586,4.37E-07,3.141538977,-2.77E-08,-0.000667704,1,1
0.5,3,1791.520087,-3667.779922,3103.21,-15.81018706,0.001054055,6.77E-07,3.141525984,-4.28E-08,-0.000830925,1,1
0.5,4,954.7221065,-1752.169948,2517.02,-23.76776408,0.000702041,3.00E-07,3.141563116,-1.26E-08,-0.000553254,1,1
0.5,5,3359.064764,4432.600031,1709.13,-31.7211625,0.000422082,1.09E-07,3.141579348,-3.42E-09,-0.000332584,2,2
0.5,16,4926.020415,4403.051276,2656.75001,-0.736023067,0.017238208,0.000183537,3.11817619,-0.000249295,-0.013676607,5,5
0.5,17,2497.07439,4865.261552,1860.860015,-0.7757256,0.020809617,0.000261611,3.114773083,-0.000337126,-0.016327727,5,5
0.5,15,3669.724742,4467.070721,2296.710003,-0.707315487,0.009799795,6.03E-05,3.127738627,-8.53E-05,-0.00784123,5,5
0.5,14,-4493.209681,-963.6609168,2907.690001,0.004302402,-3.958886196,1.12E-05,-1.569709556,-2.84E-06,0.003386249,4,4
0.5,13,-2876.059714,-10.65716955,2897.890001,0.003850994,-3.999773349,8.97E-06,-1.569833524,-2.24E-06,0.003024565,4,4
0.5,12,-2743.009799,-2271.590486,2489.7,0.002715073,3.884121597,4.51E-06,1.570097308,-1.16E-06,-0.002145334,4,4
0.5,11,3502.037777,-2934.170045,622.86,-27.68332088,-0.000602464,2.21E-07,-3.141570891,-7.99E-09,0.00047496,3,3
0.5,10,3606.512107,-3569.220052,903.38,-23.76776408,-0.000702041,3.00E-07,-3.141563116,-1.26E-08,0.000553254,3,3
0.5,9,3587.036311,-2774.630042,410.45,-23.80569138,-0.000562421,1.93E-07,-3.141569028,-8.09E-09,0.000443079,3,3
0.5,8,3283.720755,2881.499983,855.83,-31.74739352,-0.000234114,3.34E-08,-3.141585279,-1.05E-09,0.000184442,2,2
0.5,7,3256.129325,3076.7,1267.29,-31.75675,-3.58E-13,-1.72E-11,-3.141592654,5.40E-13,2.61E-13,2,2
0.5,6,3095.050755,2934.400017,1523.09,-31.74739352,0.000234114,3.33E-08,3.141585279,-1.05E-09,-0.000184442,2,2
0.6,1,1770.911306,-2579.549909,2879.7,-17.47855329,0.000923675,3.55E-07,3.141539807,-2.03E-08,-0.000601469,1,1
0.6,2,1915.646278,-1409.379796,2958.33,-13.99625314,0.00207802,1.79E-06,3.141444184,-1.28E-07,-0.001352451,1,1
0.6,3,1790.115045,-3667.779746,3103.21,-14.05042329,0.002586139,2.77E-06,3.141408592,-1.97E-07,-0.001681352,1,1
0.6,4,952.6071096,-1752.169831,2517.02,-21.14996912,0.001723011,1.23E-06,3.141511187,-5.81E-08,-0.001119564,1,1
0.6,5,3356.240406,4432.600102,1709.13,-28.24357935,0.001036098,4.44E-07,3.141555969,-1.57E-08,-0.000673077,2,2
0.6,16,4925.957577,4403.054066,2656.750046,-0.627699067,0.041066089,0.00070848,3.076262545,-0.001126285,-0.026855686,5,5
0.6,17,2497.005797,4865.26493,1860.860063,-0.685052964,0.049134736,0.000964211,3.06999127,-0.001403891,-0.031326135,5,5
0.6,15,3669.666194,4467.072303,2296.710015,-0.585233351,0.023528311,0.000242337,3.101410994,-0.000413752,-0.015714117,5,5
0.6,14,-4493.208965,-964.0131695,2907.690003,0.010485221,-3.522518657,4.52E-05,-1.56781971,-1.28E-05,0.006786024,4,4
0.6,13,-2876.059073,-11.01520798,2897.890002,0.009368232,-3.580378224,3.57E-05,-1.568179785,-9.98E-06,0.006035739,4,4
0.6,12,-2743.009348,-2271.248908,2489.700001,0.00663945,3.415774729,1.84E-05,1.568852568,-5.39E-06,-0.004334119,4,4
0.6,11,3499.57678,-2934.170145,622.8600001,-24.60996664,-0.001479365,9.08E-07,-3.141532541,-3.69E-08,0.000962065,3,3
0.6,10,3604.39711,-3569.220169,903.3800001,-21.14996912,-0.001723011,1.23E-06,-3.141511187,-5.81E-08,0.001119564,3,3
0.6,9,3584.915933,-2774.630136,410.4500001,-21.20377257,-0.001379943,7.87E-07,-3.141527574,-3.71E-08,0.000896019,3,3
0.6,8,3280.892677,2881.499943,855.83,-28.28077739,-0.000574602,1.37E-07,-3.141572336,-4.83E-09,0.000373141,2,2
0.6,7,3253.299921,3076.7,1267.29,-28.29404125,-5.91E-13,-4.83E-11,-3.141592654,1.71E-12,2.78E-13,2,2
0.6,6,3092.222677,2934.400057,1523.09,-28.28077739,0.000574602,1.37E-07,3.141572336,-4.83E-09,-0.000373141,2,2
0.7,1,1769.361323,-2579.549777,2879.7,-15.49983008,0.001817117,1.01E-06,3.141475419,-6.55E-08,-0.001017339,1,1
0.7,2,1914.40458,-1409.379499,2958.33,-12.41697786,0.004085083,5.12E-06,3.141263662,-4.12E-07,-0.002284955,1,1
0.7,3,1788.866493,-3667.779377,3103.210001,-12.4855174,0.005081575,7.89E-06,3.141185656,-6.32E-07,-0.002837388,1,1
0.7,4,950.7249212,-1752.169585,2517.02,-18.82188452,0.003387513,3.50E-06,3.141412676,-1.86E-07,-0.001890075,1,1
0.7,5,3353.725331,4432.60025,1709.13,-25.15075258,0.002037642,1.27E-06,3.141511636,-5.04E-08,-0.001136599,2,2
0.7,16,4925.904175,4403.059667,2656.750136,-0.531558168,0.076902644,0.001803987,2.997915539,-0.00335879,-0.042776231,5,5
0.7,17,2496.945036,4865.271685,1860.860179,-0.604654071,0.091274155,0.00233148,2.991771116,-0.003812678,-0.048628712,5,5
0.7,15,3669.618427,4467.075487,2296.710048,-0.476723665,0.044427109,0.000649681,3.048668463,-0.001356924,-0.025708727,5,5
0.7,14,-4493.207478,-964.3266901,2907.690009,0.020412289,-3.135176765,0.000125101,-1.564285689,-3.99E-05,0.011294781,4,4
0.7,13,-2876.057743,-11.33600627,2897.890007,0.018203414,-3.207960044,9.81E-05,-1.565121936,-3.06E-05,0.009999726,4,4
0.7,12,-2743.008408,-2270.948951,2489.700004,0.012971897,2.999558797,5.20E-05,1.566471752,-1.73E-05,-0.007279824,4,4
0.7,11,3497.38911,-2934.170357,622.8600002,-21.87670049,-0.002910267,2.59E-06,-3.141459623,-1.19E-07,0.001626102,3,3
0.7,10,3602.514921,-3569.220415,903.3800003,-18.82188452,-0.003387513,3.50E-06,-3.141412676,-1.86E-07,0.001890075,3,3
0.7,9,3583.026957,-2774.630333,410.4500002,-18.88976249,-0.002712183,2.24E-06,-3.141449074,-1.19E-07,0.001511556,3,3
0.7,8,3278.372911,2881.499861,855.83,-25.19766266,-0.001129858,3.89E-07,-3.141547814,-1.54E-08,0.000629865,2,2
0.7,7,3250.778483,3076.7,1267.29,-25.21438317,-9.45E-13,-6.10E-11,-3.141592654,2.42E-12,4.24E-13,2,2
0.7,6,3089.702911,2934.400139,1523.09,-25.19766266,0.001129858,3.89E-07,3.141547814,-1.54E-08,-0.000629865,2,2
0.8,1,1767.98732,-2579.54954,2879.7,-13.74003199,0.003131705,2.36E-06,3.141364728,-1.72E-07,-0.001550354,1,1
0.8,2,1913.303325,-1409.378967,2958.330001,-11.01254602,0.007033925,1.19E-05,3.140953934,-1.08E-06,-0.003476956,1,1
0.8,3,1787.757099,-3667.778714,3103.210001,-11.09394003,0.008745307,1.82E-05,3.140804358,-1.64E-06,-0.004312043,1,1
0.8,4,949.0497732,-1752.169142,2517.020001,-16.75147941,0.005834862,8.10E-06,3.141244334,-4.84E-07,-0.002874596,1,1
0.8,5,3351.485318,4432.600516,1709.13,-22.40012853,0.003511359,2.93E-06,3.141435897,-1.31E-07,-0.001729425,2,2
0.8,16,4925.859229,4403.069122,2656.75031,-0.442826812,0.123020018,0.003483341,2.870619451,-0.007578974,-0.059191347,5,5
0.8,17,2496.891356,4865.283054,1860.860392,-0.529468909,0.145180681,0.004259784,2.87396981,-0.007758837,-0.065518368,5,5
0.8,15,3669.580259,4467.080866,2296.710115,-0.378858031,0.071726163,0.001342415,2.954485157,-0.003481462,-0.036863892,5,5
0.8,14,-4493.204834,-964.6058465,2907.690023,0.034703147,-2.791477354,0.000278341,-1.558365146,-9.97E-05,0.016848961,4,4
0.8,13,-2876.055382,-11.62374694,2897.890018,0.030887477,-2.877340842,0.000215985,-1.560062009,-7.51E-05,0.014842326,4,4
0.8,12,-2743.006732,-2270.685973,2489.70001,0.022135615,2.629738423,0.000118021,1.562379105,-4.49E-05,-0.010971559,4,4
0.8,11,3495.444518,-2934.170737,622.8600005,-19.44591696,-0.005016471,6.01E-06,-3.141334683,-3.09E-07,0.00247663,3,3
0.8,10,3600.839773,-3569.220858,903.3800007,-16.75147941,-0.005834862,8.10E-06,-3.141244334,-4.84E-07,0.002874596,3,3
0.8,9,3581.343775,-2774.630687,410.4500004,-16.83182315,-0.004670063,5.17E-06,-3.141315199,-3.07E-07,0.002297003,3,3
0.8,8,3276.127348,2881.499714,855.8300001,-22.45562888,-0.001946682,9.00E-07,-3.141505963,-4.01E-08,0.000957979,2,2
0.8,7,3248.530942,3076.7,1267.29,-22.47540273,-1.24E-12,-5.16E-11,-3.141592654,2.30E-12,4.12E-13,2,2
0.8,6,3087.457348,2934.400286,1523.09,-22.45562888,0.001946682,9.00E-07,3.141505963,-4.01E-08,-0.000957979,2,2
0.9,1,1766.769825,-2579.549155,2879.7,-12.17494604,0.004940229,4.78E-06,3.141186883,-3.92E-07,-0.002207186,1,1
0.9,2,1912.326962,-1409.378101,2958.330002,-9.763635163,0.011083105,2.39E-05,3.140457513,-2.45E-06,-0.004940777,1,1
0.9,3,1786.771444,-3667.777637,3103.210003,-9.856545046,0.013772193,3.67E-05,3.140195391,-3.72E-06,-0.006118607,1,1
0.9,4,947.5587464,-1752.168422,2517.020001,-14.91026719,0.009199762,1.63E-05,3.140975645,-1.10E-06,-0.004083833,1,1
0.9,5,3349.489932,4432.60095,1709.130001,-19.9538609,0.005539769,5.93E-06,3.141315025,-2.97E-07,-0.002458593,2,2
0.9,16,4925.822254,4403.083162,2656.75058,-0.35577198,0.173991591,0.005384349,2.686740397,-0.013594669,-0.073052393,5,5
0.9,17,2496.844528,4865.299944,1860.860704,-0.454030184,0.205311892,0.006229833,2.716911732,-0.012501686,-0.078881235,5,5
0.9,15,3669.550795,4467.088848,2296.710229,-0.287859996,0.102473686,0.0022745,2.799596444,-0.007443679,-0.0476859,5,5
0.9,14,-4493.200598,-964.8545254,2907.69005,0.053808848,-2.486576581,0.000534,-1.549159973,-0.000214703,0.023339283,4,4
0.9,13,-2876.051606,-11.88214995,2897.890038,0.047797347,-2.583870545,0.000409889,-1.552300084,-0.000158607,0.020448557,4,4
0.9,12,-2743.004041,-2270.455844,2489.700021,0.03445189,2.301192229,0.000231687,1.555826123,-0.00010067,-0.015373731,4,4
0.9,11,3493.716101,-2934.171356,622.8600011,-17.2841715,-0.00791622,1.22E-05,-3.14113465,-7.04E-07,0.003524386,3,3
0.9,10,3599.348746,-3569.221578,903.3800015,-14.91026719,-0.009199762,1.63E-05,-3.140975645,-1.10E-06,0.004083833,3,3
0.9,9,3579.843611,-2774.631263,410.4500009,-15.00163889,-0.007360571,1.04E-05,-3.141102003,-6.95E-07,0.00326025,3,3
0.9,8,3274.125653,2881.499473,855.8300002,-20.01694769,-0.003070644,1.82E-06,-3.141439251,-9.07E-08,0.001361235,2,2
0.9,7,3246.527001,3076.7,1267.29,-20.03941353,-1.60E-12,-8.71E-12,-3.141592654,4.34E-13,5.07E-13,2,2
0.9,6,3085.455653,2934.400527,1523.09,-20.01694769,0.003070644,1.82E-06,3.141439251,-9.07E-08,-0.001361235,2,2
1,1,1765.691521,-2579.54857,2879.700001,-10.7830382,0.007313486,8.79E-06,3.140914414,-8.15E-07,-0.002994959,1,1
1,2,1911.461655,-1409.37679,2958.330004,-8.653061643,0.016384038,4.38E-05,3.139699218,-5.07E-06,-0.00668872,1,1
1,3,1785.895813,-3667.776008,3103.210007,-8.756305751,0.020347491,6.70E-05,3.139268905,-7.65E-06,-0.008269831,1,1
1,4,946.2314547,-1752.167332,2517.020003,-13.27291399,0.013613465,3.00E-05,3.140566996,-2.26E-06,-0.005529042,1,1
1,5,3347.712103,4432.601607,1709.130001,-17.77829083,0.008204217,1.09E-05,3.14113118,-6.12E-07,-0.003331758,2,2
1,16,4925.793238,4403.101886,2656.75092,-0.266615646,0.220661835,0.00677865,2.450223663,-0.019584099,-0.081220391,5,5
1,17,2496.804771,4865.322611,1860.861077,-0.37518261,0.263167541,0.007457645,2.52990188,-0.016271737,-0.085955019,5,5
1,15,3669.529445,4467.099449,2296.710392,-0.199875654,0.13088462,0.003259485,2.561829332,-0.013641936,-0.05631387,5,5
1,14,-4493.1943,-965.0761789,2907.690096,0.077978443,-2.216074501,0.000917856,-1.535623194,-0.000413925,0.030600426,4,4
1,13,-2876.046,-12.11451836,2897.890073,0.069129636,-2.323344144,0.000696384,-1.541050735,-0.000299601,0.026655578,4,4
1,12,-2743.000031,-2270.25489,2489.700042,0.050113889,2.009326765,0.000408603,1.545860859,-0.00020329,-0.02041804,4,4
1,11,3492.179929,-2934.172294,622.8600022,-15.36172092,-0.011725958,2.24E-05,-3.140829331,-1.46E-06,0.004781086,3,3
1,10,3598.021455,-3569.222668,903.380003,-13.27291399,-0.013613465,3.00E-05,-3.140566996,-2.26E-06,0.005529042,3,3
1,9,3578.506208,-2774.632136,410.4500019,-13.37402715,-0.010887649,1.91E-05,-3.140778565,-1.42E-06,0.004409461,3,3
1,8,3272.340847,2881.499109,855.8300003,-17.84806453,-0.004546594,3.33E-06,-3.141337915,-1.87E-07,0.001843693,2,2
1,7,3244.739711,3076.7,1267.29,-17.87289809,-1.92E-12,-3.40E-11,-3.141592654,1.90E-12,4.97E-13,2,2
1,6,3083.670847,2934.400891,1523.09,-17.84806453,0.004546594,3.33E-06,3.141337915,-1.87E-07,-0.001843693,2,2
1.1,1,1764.737005,-2579.54773,2879.700002,-9.545157021,0.01032043,1.51E-05,3.140511432,-1.58E-06,-0.003921034,1,1
1.1,2,1910.695099,-1409.374911,2958.330008,-7.665543418,0.023080543,7.47E-05,3.138581716,-9.75E-06,-0.008732314,1,1
1.1,3,1785.118003,-3667.773672,3103.210012,-7.778079383,0.028646275,0.000113798,3.137909721,-1.46E-05,-0.010776871,1,1
1.1,4,945.0497652,-1752.165766,2517.020006,-11.81688967,0.01920439,5.11E-05,3.13996749,-4.32E-06,-0.007221574,1,1
1.1,5,3346.127754,4432.602551,1709.130002,-15.84348359,0.011585556,1.86E-05,3.140861403,-1.17E-06,-0.004356997,2,2
1.1,16,4925.77231,4403.124555,2656.751267,-0.1776245,0.253325757,0.006926507,2.182307303,-0.022383624,-0.0815973,5,5
1.1,17,2496.772404,4865.350489,1860.861443,-0.294865946,0.309989988,0.007323352,2.331195329,-0.017115707,-0.085071979,5,5
1.1,15,3669.515808,4467.112136,2296.710595,-0.113519153,0.148759595,0.00402929,2.222631852,-0.021529206,-0.061073312,5,5
1.1,14,-4493.185459,-965.2738616,2907.690168,0.10721897,-1.975925472,0.001445468,-1.516586831,-0.000730465,0.03840186,4,4
1.1,13,-2876.038142,-12.32377647,2897.890127,0.094870724,-2.091926792,0.001083265,-1.525476498,-0.0005173,0.033247418,4,4
1.1,12,-2742.99439,-2270.079847,2489.700075,0.069153931,1.749994092,0.000662222,1.531300212,-0.000378119,-0.025995017,4,4
1.1,11,3490.814717,-2934.173643,622.8600041,-13.65211388,-0.016561174,3.84E-05,-3.140379569,-2.81E-06,0.006259161,3,3
1.1,10,3596.839765,-3569.224234,903.3800055,-11.81688967,-0.01920439,5.11E-05,-3.13996749,-4.32E-06,0.007221574,3,3
1.1,9,3577.313548,-2774.633389,410.4500035,-11.92659175,-0.015352655,3.24E-05,-3.140305392,-2.72E-06,0.005752678,3,3
1.1,8,3270.748933,2881.498585,855.8300006,-15.91913693,-0.006419038,5.69E-06,-3.141189426,-3.57E-07,0.002409601,2,2
1.1,7,3243.145106,3076.7,1267.29,-15.94604673,-2.03E-12,-3.64E-11,-3.141592654,2.28E-12,3.25E-13,2,2
1.1,6,3082.078933,2934.401415,1523.090001,-15.91913693,0.006419038,5.69E-06,3.141189426,-3.57E-07,-0.002409601,2,2
1.2,1,1763.892578,-2579.546573,2879.700003,-8.444269938,0.014027964,2.44E-05,3.139931415,-2.89E-06,-0.004992715,1,1
1.2,2,1910.016348,-1409.372323,2958.330014,-6.787488706,0.031307396,0.000120296,3.136980171,-1.77E-05,-0.011081338,1,1
1.2,3,1784.42716,-3667.770458,3103.210021,-6.908397052,0.038831639,0.000182474,3.135971779,-2.64E-05,-0.01364798,1,1
1.2,4,943.9975485,-1752.163606,2517.02001,-10.52215721,0.026098145,8.24E-05,3.139112355,-7.83E-06,-0.009172294,1,1
1.2,5,3344.715472,4432.603856,1709.130004,-14.1228166,0.015764538,3.01E-05,3.140476408,-2.13E-06,-0.005542556,2,2
1.2,16,4925.759165,4403.149784,2656.751549,-0.097575811,0.268049651,0.005635269,1.919907364,-0.019752478,-0.07378716,5,5
1.2,17,2496.747341,4865.382322,1860.861733,-0.220132463,0.340805756,0.005812873,2.144296371,-0.014326403,-0.076041548,5,5
1.2,15,3669.509386,4467.125915,2296.710814,-0.033456616,0.149454527,0.004315675,1.791023689,-0.028171297,-0.061286147,5,5
1.2,14,-4493.173606,-965.4502604,2907.690273,0.14125039,-1.762362144,0.002114202,-1.490818952,-0.001195806,0.046441666,4,4
1.2,13,-2876.027621,-12.51250157,2897.890205,0.124765284,-1.886092312,0.00156417,-1.504742415,-0.000827509,0.039953007,4,4
1.2,12,-2742.986814,-2269.927822,2489.700125,0.091404834,1.519414979,0.001000098,1.510710827,-0.000657024,-0.031946062,4,4
1.2,11,3489.601534,-2934.175505,622.8600072,-12.13182657,-0.022536803,6.22E-05,-3.139734996,-5.13E-06,0.007971399,3,3
1.2,10,3595.787549,-3569.226394,903.3800096,-10.52215721,-0.026098145,8.24E-05,-3.139112355,-7.83E-06,0.009172294,3,3
1.2,9,3576.249606,-2774.635116,410.4500061,-10.63941431,-0.020854343,5.22E-05,-3.139632554,-4.90E-06,0.007297329,3,3
1.2,8,3269.328571,2881.497863,855.8300011,-14.20362382,-0.00873234,9.19E-06,-3.140977857,-6.47E-07,0.003063251,2,2
1.2,7,3241.721872,3076.7,1267.29,-14.23234733,-1.94E-12,-4.18E-11,-3.141592654,2.94E-12,1.33E-13,2,2
1.2,6,3080.658571,2934.402137,1523.090001,-14.20362382,0.00873234,9.19E-06,3.140977857,-6.47E-07,-0.003063251,2,2
1.3,1,1763.146054,-2579.545027,2879.700005,-7.465228672,0.018500269,3.79E-05,3.139114467,-5.07E-06,-0.006216879,1,1
1.3,2,1909.415664,-1409.368879,2958.330023,-6.006807436,0.041187736,0.000184979,3.134735918,-3.08E-05,-0.013742612,1,1
1.3,3,1783.813626,-3667.766181,3103.210035,-6.135276058,0.051051534,0.000279308,3.133271862,-4.55E-05,-0.016886892,1,1
1.3,4,943.0604571,-1752.160723,2517.020016,-9.370896185,0.034416883,0.000127084,3.137919928,-1.36E-05,-0.011390843,1,1
1.3,5,3343.456211,4432.6056,1709.130006,-12.59261276,0.020821891,4.66E-05,3.139939155,-3.70E-06,-0.006896519,2,2
1.3,16,4925.752696,4403.176181,2656.751724,-0.035703266,0.269948909,0.003523457,1.702292484,-0.012938906,-0.059043353,5,5
1.3,17,2496.728734,4865.416626,1860.861911,-0.159457269,0.356595831,0.003595264,1.991290386,-0.009203636,-0.060266261,5,5
1.3,15,3669.5094,4467.139787,2296.711005,0.030842731,0.136366882,0.003769813,1.348364122,-0.026957047,-0.057101013,5,5
1.3,14,-4493.158312,-965.6077177,2907.690418,0.179458843,-1.5718455,0.002895641,-1.457117763,-0.0018303,0.054345883,4,4
1.3,13,-2876.014063,-12.68295069,2897.890311,0.158286796,-1.702582905,0.002114128,-1.478094167,-0.001236386,0.046449326,4,4
1.3,12,-2742.977029,-2269.796263,2489.700195,0.116457211,1.314112897,0.001419481,1.482406835,-0.001075965,-0.038057625,4,4
1.3,11,3488.523539,-2934.177995,622.8600121,-10.77993854,-0.029767108,9.66E-05,-3.138831318,-8.96E-06,0.009930473,3,3
1.3,10,3594.850457,-3569.229277,903.380016,-9.370896185,-0.034416883,0.000127084,-3.137919928,-1.36E-05,0.011390843,3,3
1.3,9,3575.300127,-2774.637421,410.4500101,-9.494779676,-0.027488307,8.02E-05,-3.138697565,-8.45E-06,0.009049609,3,3
1.3,8,3268.060779,2881.496896,855.8300018,-12.67792027,-0.011530749,1.42E-05,-3.14068314,-1.12E-06,0.003808782,2,2
1.3,7,3240.45105,3076.7,1267.29,-12.70822063,-1.24E-12,-9.31E-12,-3.141592654,7.33E-13,-5.06E-13,2,2
1.3,6,3079.390779,2934.403104,1523.090002,-12.67792027,0.011530749,1.42E-05,3.14068314,-1.12E-06,-0.003808782,2,2
1.4,1,1762.486597,-2579.54302,2879.700008,-6.594560441,0.02379764,5.66E-05,3.137983992,-8.58E-06,-0.00759949,1,1
1.4,2,1908.884382,-1409.364416,2958.330037,-5.312742786,0.052829163,0.000273715,3.131649123,-5.15E-05,-0.016718498,1,1
1.4,3,1783.26881,-3667.760642,3103.210056,-5.448051857,0.065434075,0.000411175,3.129582685,-7.55E-05,-0.02049087,1,1
1.4,4,942.2257282,-1752.156976,2517.020025,-8.347256455,0.044277891,0.000188788,3.136288219,-2.26E-05,-0.013884716,1,1
1.4,5,3342.333028,4432.60787,1709.130009,-11.23181439,0.026838012,6.95E-05,3.139203194,-6.19E-06,-0.008426389,2,2
1.4,16,4925.751177,4403.202961,2656.751802,0.004888983,0.268440924,0.001604058,1.55258583,-0.005974397,-0.040546976,5,5
1.4,17,2496.715033,4865.452184,1860.86199,-0.118143606,0.362469076,0.001602529,1.885879274,-0.004203471,-0.040760658,5,5
1.4,15,3669.514868,4467.153176,2296.711119,0.076323057,0.123605783,0.002292118,1.017629043,-0.015776936,-0.046391325,5,5
1.4,14,-4493.139222,-965.7482524,2907.690604,0.220855578,-1.401057235,0.003730699,-1.414447934,-0.002630289,0.061676537,4,4
1.4,13,-2875.997153,-12.83708499,2897.890445,0.194616069,-1.538398905,0.00268762,-1.444959176,-0.001733208,0.052371613,4,4
1.4,12,-2742.964816,-2269.682931,2489.70029,0.143617069,1.130868575,0.001903093,1.444475408,-0.001669449,-0.044060171,4,4
1.4,11,3487.565752,-2934.181236,622.8600193,-9.577844033,-0.038364978,0.000144524,-3.137587079,-1.51E-05,0.012148325,3,3
1.4,10,3594.015728,-3569.233024,903.3800254,-8.347256455,-0.044277891,0.000188788,-3.136288219,-2.26E-05,0.013884716,3,3
1.4,9,3574.452432,-2774.640416,410.450016,-8.476931422,-0.03534583,0.000118784,-3.137423029,-1.40E-05,0.01101372,3,3
1.4,8,3266.928675,2881.495639,855.8300028,-11.32103261,-0.014858222,2.12E-05,-3.14028021,-1.87E-06,0.004649945,2,2
1.4,7,3239.31578,3076.7,1267.29,-11.35269572,-3.90E-14,-3.67E-12,-3.141592654,3.23E-13,-1.09E-12,2,2
1.4,6,3078.258675,2934.404361,1523.090003,-11.32103261,0.014858222,2.12E-05,3.14028021,-1.87E-06,-0.004649945,2,2
1.5,1,1761.904567,-2579.540471,2879.700012,-5.820282094,0.029974708,8.19E-05,3.136442655,-1.41E-05,-0.009145003,1,1
1.5,2,1908.414797,-1409.358765,2958.330057,-4.69572039,0.06631836,0.000391841,3.127470443,-8.34E-05,-0.020005103,1,1
1.5,3,1782.785069,-3667.753633,3103.210085,-4.837227283,0.082081147,0.00058524,3.124625646,-0.000120969,-0.024448392,1,1
1.5,4,941.4820088,-1752.152214,2517.020039,-7.437138562,0.055791307,0.000271691,3.134091078,-3.65E-05,-0.016658127,1,1
1.5,5,3341.330857,4432.610762,1709.130014,-10.02169298,0.033892256,0.00010064,3.138210777,-1.00E-05,-0.010138556,2,2
1.5,16,4925.752813,4403.230051,2656.751825,0.027751021,0.270052178,0.000493736,1.468394072,-0.001818718,-0.023230052,5,5
1.5,17,2496.704389,4865.488274,1860.862008,-0.096196586,0.363821094,0.00042037,1.829287224,-0.001117043,-0.021682659,5,5
1.5,15,3669.524575,4467.166203,2296.711158,0.108183986,0.121474591,0.000792373,0.843204834,-0.004871164,-0.028513798,5,5
1.5,14,-4493.11609,-965.8735818,2907.69083,0.264055687,-1.246950399,0.004530417,-1.362117939,-0.003554362,0.067951656,4,4
1.5,13,-2875.97667,-12.97659487,2897.890606,0.232637161,-1.390825444,0.003220915,-1.405065024,-0.002284095,0.057332307,4,4
1.5,12,-2742.950034,-2269.585873,2489.700411,0.171872955,0.966709396,0.002416567,1.394843158,-0.002461185,-0.049635807,4,4
1.5,11,3486.714849,-2934.185362,622.8600297,-8.508995028,-0.048440531,0.000209721,-3.135899853,-2.46E-05,0.014635387,3,3
1.5,10,3593.272009,-3569.237786,903.380039,-7.437138562,-0.055791307,0.000271691,-3.134091078,-3.65E-05,0.016658127,3,3
1.5,9,3573.695243,-2774.64422,410.4500246,-7.571854152,-0.044512046,0.000170357,-3.135714102,-2.25E-05,0.013190949,3,3
1.5,8,3265.917246,2881.494037,855.8300044,-10.11428939,-0.01875801,3.06E-05,-3.139738051,-3.02E-06,0.0055898,2,2
1.5,7,3238.301068,3076.7,1267.29,-10.14712157,1.72E-12,1.79E-11,3.141592654,-1.77E-12,-1.79E-12,2,2
1.5,6,3077.247246,2934.405963,1523.090004,-10.11428939,0.01875801,3.06E-05,3.139738051,-3.02E-06,-0.0055898,2,2
1.6,1,1761.39139,-2579.537296,2879.700017,-5.131734559,0.037077972,0.000115359,3.134367547,-2.25E-05,-0.010855624,1,1
1.6,2,1908.000055,-1409.35175,2958.330084,-4.147213063,0.081714053,0.000544776,3.121891838,-0.000131334,-0.023590157,1,1
1.6,3,1782.355605,-3667.744936,3103.210125,-4.294336906,0.101060117,0.000808413,3.11806365,-0.000188199,-0.028736493,1,1
1.6,4,940.8191999,-1752.146275,2517.020058,-6.627997774,0.06905685,0.000380321,3.13117407,-5.74E-05,-0.019710644,1,1
1.6,5,3340.436296,4432.614378,1709.130021,-8.945590854,0.042061718,0.000141849,3.136890739,-1.59E-05,-0.012037646,2,2
1.6,16,4925.756232,4403.257744,2656.751828,0.039840844,0.276188924,9.64E-05,1.427532442,-0.000345576,-0.011619028,5,5
1.6,17,2496.695146,4865.524594,1860.862007,-0.089065631,0.36404634,1.01E-05,1.810737784,-2.70E-05,-0.007087443,5,5
1.6,15,3669.537308,4467.179674,2296.711161,0.131285358,0.130889567,9.86E-05,0.78388852,-0.000532034,-0.011197775,5,5
1.6,14,-4493.088817,-965.9851522,2907.691088,0.307299636,-1.106865378,0.005185257,-1.29998617,-0.004513868,0.072679869,4,4
1.6,13,-2875.952506,-13.10292943,2897.890787,0.270963574,-1.257496198,0.003639961,-1.358562717,-0.002829656,0.060949566,4,4
1.6,12,-2742.932655,-2269.503399,2489.700556,0.199890518,0.818949563,0.002909651,1.331395634,-0.003451565,-0.05443959,4,4
1.6,11,3485.958976,-2934.190518,622.8600445,-7.55867209,-0.060098918,0.000296374,-3.133641832,-3.92E-05,0.017399592,3,3
1.6,10,3592.6092,-3569.243725,903.3800579,-6.627997774,-0.06905685,0.000380321,-3.13117407,-5.74E-05,0.019710644,3,3
1.6,9,3573.01853,-2774.648962,410.4500364,-6.767079447,-0.055063345,0.000237566,-3.133455889,-3.51E-05,0.015578585,3,3
1.6,8,3265.013137,2881.492035,855.8300065,-9.041084323,-0.023271976,4.30E-05,-3.139018634,-4.76E-06,0.006630349,2,2
1.6,7,3237.393577,3076.7,1267.29,-9.074910326,4.05E-12,3.93E-11,3.141592654,-4.33E-12,-2.56E-12,2,2
1.6,6,3076.343137,2934.407965,1523.090007,-9.041084323,0.023271976,4.30E-05,3.139018634,-4.76E-06,-0.006630349,2,2
1.7,1,1760.939441,-2579.533406,2879.700025,-4.519435307,0.045142533,0.000158618,3.131604452,-3.51E-05,-0.012730423,1,1
1.7,2,1907.63406,-1409.343192,2958.330121,-3.65961919,0.099038171,0.000737554,3.114536832,-0.000201465,-0.027450593,1,1
1.7,3,1781.974375,-3667.73433,3103.21018,-3.81182481,0.122393537,0.001086567,3.109494772,-0.000284905,-0.033317787,1,1
1.7,4,940.2283183,-1752.138989,2517.020084,-5.908669023,0.084159426,0.000519369,3.127350235,-8.79E-05,-0.023035572,1,1
1.7,5,3339.637423,4432.618827,1709.130031,-7.988691179,0.05141946,0.000195294,3.135156211,-2.44E-05,-0.014125719,2,2
1.7,16,4925.760733,4403.28633,2656.751828,0.048701732,0.285264545,2.41E-05,1.401701812,-8.32E-05,-0.007620422,5,5
1.7,17,2496.686197,4865.561081,1860.862004,-0.089700502,0.364818165,-3.53E-05,1.811891046,9.40E-05,0.000441762,5,5
1.7,15,3669.5522,4467.194411,2296.711159,0.149465172,0.146818153,-2.03E-05,0.776464322,9.70E-05,-0.001586351,5,5
1.7,14,-4493.057481,-966.0841824,2907.691366,0.348547225,-0.978697292,0.005584113,-1.228667547,-0.005374922,0.07541008,4,4
1.7,13,-2875.924698,-13.21733324,2897.89098,0.308008842,-1.136482211,0.003873832,-1.306134507,-0.00328992,0.062884702,4,4
1.7,12,-2742.912786,-2269.434046,2489.700722,0.226064697,0.685289764,0.003323244,1.252155263,-0.004605258,-0.058139839,4,4
1.7,11,3485.287588,-2934.196859,622.8600649,-6.713779995,-0.07343719,0.000409143,-3.130654812,-6.09E-05,0.020445162,3,3
1.7,10,3592.018318,-3569.251011,903.3800838,-5.908669023,-0.084159426,0.000519369,-3.127350235,-8.79E-05,0.023035572,3,3
1.7,9,3572.413369,-2774.654777,410.4500525,-6.051512855,-0.067063933,0.00032307,-3.130510931,-5.34E-05,0.018168657,3,3
1.7,8,3264.204471,2881.489572,855.8300095,-8.086647504,-0.02843961,5.91E-05,-3.138075808,-7.31E-06,0.007772098,2,2
1.7,7,3236.581446,3076.7,1267.29,-8.121309134,5.78E-12,1.55E-11,3.141592654,-1.91E-12,-2.20E-12,2,2
1.7,6,3075.534471,2934.410428,1523.090009,-8.086647504,0.02843961,5.91E-05,3.138075808,-7.31E-06,-0.007772098,2,2
1.8,1,1760.541937,-2579.528712,2879.700036,-3.974946768,0.054187933,0.000213314,3.127961131,-5.37E-05,-0.014764304,1,1
1.8,2,1907.311393,-1409.332912,2958.330169,-3.226153286,0.1182651,0.000974148,3.104950822,-0.000301751,-0.031549879,1,1
1.8,3,1781.636008,-3667.721594,3103.210251,-3.382934521,0.146046746,0.001423476,3.09844783,-0.00042039,-0.0381373,1,1
1.8,4,939.7013744,-1752.130178,2517.020118,-5.26921031,0.101163494,0.000693369,3.122396026,-0.000131565,-0.026618089,1,1
1.8,5,3338.923635,4432.624226,1709.130044,-7.137813057,0.062032098,0.000263242,3.132902242,-3.69E-05,-0.016401328,2,2
1.8,16,4925.766294,4403.315929,2656.75183,0.060535113,0.295033233,7.28E-05,1.368424362,-0.000241615,-0.010214397,5,5
1.8,17,2496.677143,4865.59781,1860.862,-0.090748747,0.367237379,-3.17E-05,1.813054989,8.38E-05,0.000448927,5,5
1.8,15,3669.568861,4467.210717,2296.711157,0.166913436,0.162749312,-1.98E-05,0.77276737,8.48E-05,-0.000878865,5,5
1.8,14,-4493.022352,-966.171723,2907.691647,0.385669062,-0.86106875,0.005640952,-1.149693646,-0.005978721,0.075793195,4,4
1.8,13,-2875.893434,-13.32089186,2897.891172,0.34211107,-1.026378287,0.003871668,-1.249058948,-0.00357859,0.062885787,4,4
1.8,12,-2742.890681,-2269.376536,2489.700901,0.248670803,0.56396103,0.003603045,1.155505418,-0.005845696,-0.060480267,4,4
1.8,11,3484.691305,-2934.204548,622.8600925,-5.962665159,-0.088540084,0.000553006,-3.126744666,-9.27E-05,0.023771131,3,3
1.8,10,3591.491374,-3569.259822,903.3801184,-5.26921031,-0.101163494,0.000693369,-3.122396026,-0.000131565,0.026618089,3,3
1.8,9,3571.871827,-2774.661806,410.4500739,-5.415279521,-0.08056147,0.000429337,-3.126717055,-7.93E-05,0.020946514,3,3
1.8,8,3263.480684,2881.486585,855.8300134,-7.237841923,-0.034296696,7.95E-05,-3.136854164,-1.10E-05,0.009013534,2,2
1.8,7,3235.854126,3076.7,1267.29,-7.273197123,7.44E-12,-3.10E-11,3.141592654,4.26E-12,-2.30E-12,2,2
1.8,6,3074.810684,2934.413415,1523.090013,-7.237841923,0.034296696,7.95E-05,3.136854164,-1.10E-05,-0.009013534,2,2
1.9,1,1760.192847,-2579.523121,2879.70005,-3.490758909,0.064213027,0.000280993,3.12319958,-8.05E-05,-0.016946837,1,1
1.9,2,1907.02724,-1409.320737,2958.330232,-2.840747701,0.139309045,0.001256601,3.092592339,-0.000441818,-0.035835247,1,1
1.9,3,1781.335736,-3667.706515,3103.210341,-3.001610413,0.171913432,0.001819484,3.084381423,-0.000605177,-0.043119284,1,1
1.9,4,939.2312632,-1752.119659,2517.020164,-4.70076249,0.120106088,0.000906234,3.11604787,-0.000192722,-0.030433156,1,1
1.9,5,3338.285502,4432.630697,1709.130062,-6.381228909,0.07395666,0.000347965,3.130003452,-5.45E-05,-0.018858412,2,2
1.9,16,4925.773385,4403.346463,2656.751841,0.078769589,0.303447573,0.000240068,1.316819651,-0.000765757,-0.016474835,5,5
1.9,17,2496.668243,4865.63496,1860.861999,-0.086354028,0.372127031,1.57E-06,1.798815817,-4.10E-06,-0.005545465,5,5
1.9,15,3669.587358,4467.228323,2296.711157,0.187087254,0.173822211,2.02E-05,0.748660211,-7.92E-05,-0.006275529,5,5
1.9,14,-4492.983894,-966.2487301,2907.691912,0.416734867,-0.753430062,0.005322521,-1.065563286,-0.006181695,0.073648621,4,4
1.9,13,-2875.859057,-13.41458376,2897.891352,0.371707782,-0.926346528,0.003618724,-1.189202379,-0.00362545,0.060832462,4,4
1.9,12,-2742.866733,-2269.32972,2489.701086,0.266149811,0.453852028,0.003717395,1.040418845,-0.007065369,-0.061358611,4,4
1.9,11,3484.161786,-2934.213753,622.8601291,-5.294952294,-0.105474576,0.000733004,-3.121675453,-0.000138407,0.027369599,3,3
1.9,10,3591.021263,-3569.270341,903.3801636,-4.700762489,-0.120106088,0.000906234,-3.11604787,-0.000192722,0.030433156,3,3
1.9,9,3571.386848,-2774.670193,410.4501018,-4.849586418,-0.095581754,0.000558348,-3.121885946,-0.000115111,0.023889281,3,3
1.9,8,3262.832383,2881.483005,855.8300187,-6.482982328,-0.040873588,0.000104815,-3.135287986,-1.62E-05,0.010350532,2,2
1.9,7,3235.202236,3076.7,1267.29,-6.51890488,8.61E-12,-6.02E-11,3.141592654,9.23E-12,-1.98E-12,2,2
1.9,6,3074.162383,2934.416995,1523.090019,-6.482982328,0.040873587,0.000104815,3.135287986,-1.62E-05,-0.010350532,2,2
2,1,1759.886807,-2579.516547,2879.700068,-3.060184388,0.075189862,0.000362915,3.117027226,-0.000118557,-0.019261011,1,1
2,2,1906.777326,-1409.306506,2958.330311,-2.497964994,0.162009721,0.001583954,3.07682668,-0.000632768,-0.040235047,1,1
2,3,1781.069332,-3667.688891,3103.210454,-2.662410669,0.199799453,0.002269981,3.066688489,-0.000850213,-0.048164359,1,1
2,4,938.8116686,-1752.107249,2517.020221,-4.195423707,0.140988421,0.00116063,3.108000008,-0.000276486,-0.034443266,1,1
2,5,3337.714637,4432.638367,1709.130084,-5.708501642,0.087236651,0.000451573,3.126311961,-7.91E-05,-0.02148504,2,2
2,16,4925.782655,4403.377687,2656.751864,0.103470051,0.308903557,0.000494159,1.247583315,-0.001516885,-0.022944194,5,5
2,17,2496.660212,4865.672759,1860.862007,-0.073255444,0.379442061,0.000186181,1.761510906,-0.000481773,-0.014688435,5,5
2,15,3669.608018,4467.246608,2296.711165,0.210974131,0.177830606,0.000164484,0.700359095,-0.000596123,-0.013573008,5,5
2,14,-4492.94273,-966.3161414,2907.692143,0.440349917,-0.656000164,0.004666794,-0.979617049,-0.005906582,0.069024533,4,4
2,13,-2875.822046,-13.49933304,2897.891508,0.395536917,-0.836075473,0.003145655,-1.128909514,-0.003401,0.056775092,4,4
2,12,-2742.841432,-2269.292521,2489.701269,0.27751251,0.354506517,0.003672205,0.906623125,-0.008156488,-0.060898923,4,4
2,11,3483.691609,-2934.22465,622.8601766,-4.701398074,-0.124283055,0.000953854,-3.115163469,-0.000202817,0.031223704,3,3
2,10,3590.601669,-3569.282751,903.3802215,-4.195423707,-0.140988421,0.00116063,-3.108000007,-0.000276486,0.034443266,3,3
2,9,3570.952156,-2774.680083,410.4501372,-4.34659941,-0.112122434,0.000711212,-3.115802935,-0.000163571,0.026964247,3,3
2,8,3262.251211,2881.478763,855.8300254,-5.811674025,-0.048193084,0.000135641,-3.133300382,-2.33E-05,0.011775689,2,2
2,7,3234.61743,3076.7,1267.29,-5.848053882,9.57E-12,-9.05E-11,3.141592654,1.55E-11,-1.88E-12,2,2
2,6,3073.581211,2934.421237,1523.090025,-5.811674025,0.048193084,0.000135641,3.133300382,-2.33E-05,-0.011775689,2,2
2.1,1,1759.619049,-2579.508904,2879.700091,-2.677265005,0.087056622,0.000459804,3.109087108,-0.000171653,-0.021681994,1,1
2.1,2,1906.557863,-1409.290078,2958.330408,-2.192921259,0.186116911,0.001951079,3.05692388,-0.000886529,-0.044656607,1,1
2.1,3,1780.833055,-3667.668546,3103.210592,-2.360432785,0.229405596,0.002763842,3.044708989,-0.001165413,-0.05314743,1,1
2.1,4,938.4369786,-1752.092764,2517.020294,-3.746137169,0.16376608,0.001457185,3.097904484,-0.000388612,-0.038596147,1,1
2.1,5,3337.203582,4432.647367,1709.130113,-5.110339406,0.101897274,0.000575758,3.121655862,-0.000112643,-0.024262032,2,2
2.1,16,4925.794617,4403.409248,2656.751897,0.131897896,0.310772276,0.000687173,1.169417248,-0.002035437,-0.02682654,5,5
2.1,17,2496.653942,4865.711373,1860.862032,-0.051185291,0.387893813,0.000529401,1.70199529,-0.001353079,-0.02370059,5,5
2.1,15,3669.631139,4467.264871,2296.711181,0.236935916,0.175210781,0.000343148,0.636738089,-0.001164469,-0.019076805,5,5
2.1,14,-4492.899578,-966.3749372,2907.69233,0.455940609,-0.569499047,0.003781669,-0.895689989,-0.005183674,0.062238672,4,4
2.1,13,-2875.782983,-13.57605341,2897.891633,0.412820158,-0.755631588,0.002525803,-1.070779265,-0.002933405,0.050960185,4,4
2.1,12,-2742.815283,-2269.263891,2489.701444,0.282732863,0.265871397,0.00351237,0.754672628,-0.009049804,-0.059468226,4,4
2.1,11,3483.274177,-2934.237417,622.8602374,-4.173759879,-0.144974997,0.001219389,-3.106871745,-0.00029198,0.03530535,3,3
2.1,10,3590.226979,-3569.297236,903.3802941,-3.746137169,-0.16376608,0.001457185,-3.097904484,-0.000388612,0.038596147,3,3
2.1,9,3570.562177,-2774.691621,410.4501815,-3.899333742,-0.130145817,0.000887699,-3.108228615,-0.000227527,0.030127297,3,3
2.1,8,3261.729738,2881.473788,855.830034,-5.214669405,-0.056267863,0.000172416,-3.130802769,-3.31E-05,0.013277599,2,2
2.1,7,3234.092289,3076.7,1267.29,-5.2514137,1.07E-11,-1.57E-10,3.141592654,2.99E-11,-2.17E-12,2,2
2.1,6,3073.059738,2934.426212,1523.090034,-5.214669405,0.056267863,0.000172416,3.130802769,-3.31E-05,-0.013277599,2,2
2.2,1,1759.385334,-2579.500118,2879.700119,-2.336688409,0.099709846,0.000571577,3.09894709,-0.000244387,-0.02417607,1,1
2.2,2,1906.365498,-1409.27134,2958.330525,-1.921221578,0.211275036,0.002347578,3.032063643,-0.001214596,-0.04898516,1,1
2.2,3,1780.623604,-3667.645337,3103.210756,-2.091253534,0.260310695,0.003282116,3.017753716,-0.001557429,-0.057917065,1,1
2.2,4,938.1022102,-1752.076027,2517.020383,-3.346591382,0.188337943,0.001793564,3.085374411,-0.000535091,-0.042822583,1,1
2.2,5,3336.745703,4432.657829,1709.130149,-4.578466058,0.117939774,0.000721477,3.115838679,-0.000157528,-0.027161505,2,2
2.2,16,4925.809437,4403.440811,2656.75193,0.159992638,0.309913184,0.000679643,1.094233501,-0.001948657,-0.026662234,5,5
2.2,17,2496.650216,4865.750807,1860.862074,-0.022664709,0.395539124,0.000853527,1.628034538,-0.002154345,-0.029796646,5,5
2.2,15,3669.656784,4467.282573,2296.711201,0.262129438,0.168607676,0.00040616,0.571596291,-0.001303158,-0.020656675,5,5
2.2,14,-4492.855169,-966.4261694,2907.692469,0.463876511,-0.494706859,0.002819191,-0.817549487,-0.004157025,0.053885559,4,4
2.2,13,-2875.742496,-13.64567365,2897.891724,0.423378994,-0.68521654,0.001858692,-1.01733615,-0.002307601,0.043833694,4,4
2.2,12,-2742.788708,-2269.24282,2489.701608,0.282869828,0.187799018,0.003301545,0.586089042,-0.009723428,-0.057568289,4,4
2.2,11,3482.903629,-2934.25223,622.8603138,-3.704678125,-0.167517051,0.001531817,-3.096405726,-0.00041306,0.039572752,3,3
2.2,10,3589.89221,-3569.313973,903.3803835,-3.346591382,-0.188337943,0.001793564,-3.085374411,-0.000535091,0.042822583,3,3
2.2,9,3570.211957,-2774.704945,410.4502356,-3.501556877,-0.149570954,0.001085715,-3.098903048,-0.000309784,0.033321527,3,3
2.2,8,3261.261355,2881.468006,855.8300447,-4.683740246,-0.065097488,0.000215343,-3.127694937,-4.60E-05,0.014840114,2,2
2.2,7,3233.620212,3076.7,1267.29,-4.720774992,9.74E-12,-1.26E-10,3.141592654,2.68E-11,-9.50E-14,2,2
2.2,6,3072.591355,2934.431994,1523.090045,-4.683740246,0.065097488,0.000215343,3.127694937,-4.60E-05,-0.014840114,2,2
2.3,1,1759.181895,-2579.490126,2879.700154,-2.033714385,0.112996373,0.000697039,3.086088148,-0.000342214,-0.026700013,1,1
2.3,2,1906.197269,-1409.250221,2958.330662,-1.678909595,0.237009807,0.002757012,3.001350475,-0.001626021,-0.053084624,1,1
2.3,3,1780.438072,-3667.619164,3103.210945,-1.850886094,0.291957588,0.003797381,2.985142378,-0.002026595,-0.062297173,1,1
2.3,4,937.8029436,-1752.056875,2517.020491,-2.991132539,0.214534153,0.002163485,3.069991877,-0.000721446,-0.047034646,1,1
2.3,5,3336.335107,4432.669885,1709.130193,-4.105505774,0.135334961,0.000888557,3.108640326,-0.000216313,-0.030145416,2,2
2.3,16,4925.826882,4403.4722,2656.751953,0.184035669,0.30843529,0.000475908,1.032825167,-0.001325029,-0.022445971,5,5
2.3,17,2496.649461,4865.790897,1860.86212,0.00785316,0.400985827,0.000946965,1.551214197,-0.002361134,-0.031322899,5,5
2.3,15,3669.684748,4467.299513,2296.711215,0.284140341,0.161814244,0.000303721,0.517681279,-0.000928852,-0.017947877,5,5
2.3,14,-4492.810167,-966.4709455,2907.692563,0.465368504,-0.431977216,0.001931597,-0.748204151,-0.003042075,0.044796312,4,4
2.3,13,-2875.701205,-13.70913784,2897.891785,0.427651058,-0.624885152,0.001243609,-0.970639236,-0.001642356,0.036014645,4,4
2.3,12,-2742.761979,-2269.228389,2489.701761,0.279679259,0.119572782,0.003083837,0.404016188,-0.010138253,-0.05556813,4,4
2.3,11,3482.574755,-2934.269259,622.860408,-3.28757111,-0.19182157,0.001890797,-3.083311228,-0.000574158,0.04396793,3,3
2.3,10,3589.592944,-3569.333125,903.3804912,-2.991132538,-0.214534153,0.002163485,-3.069991877,-0.000721446,0.047034646,3,3
2.3,9,3569.897097,-2774.720185,410.4503004,-3.147702917,-0.170265318,0.001300779,-3.08755339,-0.000412644,0.036476274,3,3
2.3,8,3260.840185,2881.461345,855.8300579,-4.211564117,-0.07466504,0.000264276,-3.123865933,-6.27E-05,0.016441627,2,2
2.3,7,3233.195328,3076.7,1267.29,-4.248836549,6.49E-12,-1.35E-10,3.141592654,3.17E-11,2.32E-12,2,2
2.3,6,3072.170185,2934.438655,1523.090058,-4.211564117,0.07466504,0.000264276,3.123865933,-6.27E-05,-0.016441627,2,2
2.4,1,1759.005389,-2579.478885,2879.700196,-1.764110352,0.126705828,0.000833631,3.069891572,-0.000471336,-0.02920132,1,1
2.4,2,1906.050567,-1409.226697,2958.330819,-1.462433853,0.262720449,0.003156867,2.963842589,-0.002124624,-0.056801261,1,1
2.4,3,1780.273908,-3667.589987,3103.211158,-1.635757135,0.323645988,0.004274289,2.946258524,-0.002563336,-0.06609201,1,1
2.4,4,937.5352642,-1752.035163,2517.020619,-2.674689273,0.242103784,0.002555804,3.051322052,-0.000951661,-0.051124686,1,1
2.4,5,3335.966556,4432.683661,1709.130247,-3.684880554,0.154016025,0.001075247,3.099820219,-0.000291545,-0.033164245,2,2
2.4,16,4925.846418,4403.503471,2656.751963,0.201724404,0.308669334,0.000212938,0.991944164,-0.000577475,-0.015356276,5,5
2.4,17,2496.651629,4865.831407,1860.862157,0.035407162,0.404214015,0.00075148,1.483424249,-0.00185202,-0.027981846,5,5
2.4,15,3669.714643,4467.315859,2296.711221,0.301746287,0.158278559,0.000129399,0.483087785,-0.00037976,-0.012009984,5,5
2.4,14,-4492.765098,-966.5103728,2907.692623,0.462182119,-0.380872373,0.001226756,-0.689248944,-0.00204836,0.035941447,4,4
2.4,13,-2875.659667,-13.76738007,2897.891821,0.426608668,-0.574303742,0.00075262,-0.931901382,-0.001052004,0.02823464,4,4
2.4,12,-2742.735224,-2269.219839,2489.701902,0.274838349,0.059902617,0.002848926,0.214599659,-0.010127705,-0.053389694,4,4
2.4,11,3482.282937,-2934.288664,622.8605222,-2.916541894,-0.217733766,0.002292381,-3.067076113,-0.000783812,0.048414376,3,3
2.4,10,3589.325264,-3569.354837,903.3806185,-2.674689273,-0.242103784,0.002555805,-3.051322052,-0.000951661,0.051124686,3,3
2.4,9,3569.613695,-2774.737455,410.4503763,-2.832798229,-0.19203663,0.001525584,-3.073905776,-0.00053731,0.039506803,3,3
2.4,8,3260.461004,2881.453737,855.8300738,-3.791623408,-0.084933446,0.000318597,-3.119196114,-8.40E-05,0.018054443,2,2
2.4,7,3232.812417,3076.7,1267.29,-3.829104837,-1.19E-12,-1.07E-10,-3.141592654,2.81E-11,7.18E-12,2,2
2.4,6,3071.791004,2934.446263,1523.090074,-3.791623408,0.084933446,0.000318597,3.119196114,-8.40E-05,-0.018054443,2,2
2.5,1,1758.852848,-2579.466374,2879.700244,-1.524096093,0.140565039,0.000977308,3.049624366,-0.000638528,-0.031619895,1,1
2.5,2,1905.923096,-1409.200808,2958.330995,-1.268633164,0.287682959,0.003519669,2.918597876,-0.002705678,-0.059971377,1,1
2.5,3,1780.128878,-3667.557837,3103.21139,-1.442705464,0.354538311,0.004671851,2.900622259,-0.003144683,-0.069095571,1,1
2.5,4,937.29571,-1752.010773,2517.020766,-2.392710521,0.270703339,0.002953895,3.028935007,-0.001226713,-0.05496556,1,1
2.5,5,3335.635398,4432.699277,1709.13031,-3.310719695,0.173870898,0.001277759,3.089123303,-0.000385415,-0.036155973,2,2
2.5,16,4925.867366,4403.534874,2656.751964,0.212433128,0.31204986,3.43E-05,0.973095636,-9.09E-05,-0.007252684,5,5
2.5,17,2496.65622,4865.872167,1860.862176,0.056008853,0.40637433,0.000402957,1.433833459,-0.000982305,-0.0207152,5,5
2.5,15,3669.746016,4467.332054,2296.711221,0.314787848,0.159888251,1.06E-05,0.469966565,-2.99E-05,-0.004722414,5,5
2.5,14,-4492.720317,-966.5454768,2907.692658,0.456284135,-0.340043717,0.00074399,-0.640451304,-0.001307411,0.028280111,4,4
2.5,13,-2875.61833,-13.8212808,2897.89184,0.421613065,-0.532621315,0.000414278,-0.90120987,-0.000609864,0.021245311,4,4
2.5,12,-2742.708509,-2269.216583,2489.702027,0.269401417,0.007528957,0.002535062,0.027939709,-0.009406031,-0.050434998,4,4
2.5,11,3482.02408,-2934.310586,622.860658,-2.586297362,-0.24501797,0.002727902,-3.047137594,-0.00105005,0.0528152,3,3
2.5,10,3589.08571,-3569.379227,903.3807656,-2.392710521,-0.270703339,0.002953895,-3.028935007,-0.001226713,0.05496556,3,3
2.5,9,3569.358292,-2774.756849,410.4504634,-2.552398138,-0.214625657,0.001749769,-3.057702161,-0.000683128,0.042315009,3,3
2.5,8,3260.119167,2881.445117,855.8300926,-3.418115741,-0.095841672,0.000377091,-3.113560669,-0.000110278,0.019644351,2,2
2.5,7,3232.466837,3076.7,1267.29,-3.455804646,-1.29E-11,-8.14E-11,-3.141592654,2.35E-11,1.20E-11,2,2
2.5,6,3071.449167,2934.454884,1523.090093,-3.418115741,0.095841672,0.000377091,3.113560669,-0.000110278,-0.019644351,2,2
2.6,1,1758.721637,-2579.452603,2879.7003,-1.310297923,0.15423656,0.001122693,3.02442078,-0.000850947,-0.033892059,1,1
2.6,2,1905.812837,-1409.172664,2958.331184,-1.094741276,0.31107207,0.003815665,2.864738688,-0.003352711,-0.062434214,1,1
2.6,3,1780.001027,-3667.522825,3103.211636,-1.269000494,0.383686291,0.004947817,2.84797841,-0.00373211,-0.071106215,1,1
2.6,4,937.0812258,-1751.983624,2517.020932,-2.141117508,0.299887848,0.003335575,3.002436524,-0.001542806,-0.058412685,1,1
2.6,5,3335.337503,4432.716839,1709.130384,-2.97778064,0.194734605,0.001489866,3.076289753,-0.000499261,-0.0390456,2,2
2.6,16,4925.889061,4403.566736,2656.751962,0.216976548,0.318592218,-1.57E-05,0.972903484,4.08E-05,-7.55E-05,5,5
2.6,17,2496.662429,4865.913137,1860.862181,0.06758648,0.408840701,0.000108574,1.406965501,-0.000262009,-0.011346739,5,5
2.6,15,3669.778436,4467.348626,2296.71122,0.323774993,0.166545213,-6.72E-06,0.475089792,1.84E-05,0.001901607,5,5
2.6,14,-4492.676001,-966.5771211,2907.692679,0.449538998,-0.307380343,0.000461567,-0.599748674,-0.000847563,0.022581313,4,4
2.6,13,-2875.577502,-13.87161735,2897.89185,0.414245599,-0.498488339,0.000215281,-0.877434559,-0.00033215,0.01570546,4,4
2.6,12,-2742.681912,-2269.21812,2489.70213,0.264000432,-0.038126867,0.002088007,-0.14342804,-0.007827732,-0.045951928,4,4
2.6,11,3481.794563,-2934.33514,622.8608165,-2.292080334,-0.273343945,0.003183005,-3.022897397,-0.001378925,0.05705224,3,3
2.6,10,3588.871226,-3569.406376,903.3809316,-2.141117508,-0.299887848,0.003335575,-3.002436524,-0.001542806,0.058412685,3,3
2.6,9,3569.127827,-2774.778433,410.450561,-2.302534645,-0.23770117,0.001960049,-3.038722495,-0.000846757,0.044791491,3,3
2.6,8,3259.810546,2881.435424,855.8301144,-3.085874708,-0.107301028,0.000437843,-3.106834984,-0.0001418,0.021170492,2,2
2.6,7,3232.154457,3076.7,1267.29,-3.123799634,-2.84E-11,-2.89E-11,-3.141592654,9.26E-12,1.71E-11,2,2
2.6,6,3071.140546,2934.464576,1523.090114,-3.085874708,0.107301028,0.000437843,3.106834984,-0.0001418,-0.021170492,2,2
2.7,1,1758.609423,-2579.437618,2879.700363,-1.119712415,0.167324578,0.001263671,2.99325501,-0.001116174,-0.035958025,1,1
2.7,2,1905.718009,-1409.142449,2958.331384,-0.938406309,0.332011138,0.004017156,2.801533725,-0.004035665,-0.064050669,1,1
2.7,3,1779.888633,-3667.485154,3103.211888,-1.112372831,0.41008667,0.005065126,2.788392444,-0.004272335,-0.071946828,1,1
2.7,4,936.8891202,-1751.953682,2517.021114,-1.916270729,0.329107218,0.003673916,2.971508369,-0.001889555,-0.061308528,1,1
2.7,5,3335.06921,4432.736436,1709.130469,-2.681380866,0.216382276,0.001702652,3.06106907,-0.000632933,-0.041745482,2,2
2.7,16,4925.910974,4403.59932,2656.751962,0.217224383,0.327119929,7.38E-06,0.984606613,-1.88E-05,0.004684654,5,5
2.7,17,2496.66935,4865.954387,1860.862179,0.070209778,0.412331052,-1.22E-05,1.402138651,2.92E-05,-0.002058175,5,5
2.7,15,3669.811548,4467.366005,2296.711221,0.329670285,0.176528398,2.97E-05,0.491618993,-7.95E-05,0.006300538,5,5
2.7,14,-4492.632165,-966.6059493,2907.692693,0.443499853,-0.280353449,0.000328141,-0.563716347,-0.000625411,0.019262809,4,4
2.7,13,-2875.537338,-13.91902227,2897.891854,0.406139067,-0.470207696,0.000118382,-0.858377091,-0.000190532,0.012069061,4,4
2.7,12,-2742.655504,-2269.223914,2489.702205,0.259411476,-0.076991832,0.001532945,-0.288513143,-0.005665013,-0.03962825,4,4
2.7,11,3481.59119,-2934.362405,622.8609976,-2.029616188,-0.302274924,0.003637073,-2.993747307,-0.001772449,0.060986718,3,3
2.7,10,3588.67912,-3569.436318,903.3811144,-1.916270729,-0.329107218,0.003673916,-2.971508369,-0.001889555,0.061308528,3,3
2.7,9,3568.91959,-2774.802238,410.4506675,-2.07967505,-0.260858657,0.002140856,-3.016811922,-0.001021414,0.046819376,3,3
2.7,8,3259.531472,2881.424612,855.8301392,-2.790300032,-0.119191922,0.000498188,-3.098902081,-0.00017838,0.022585684,2,2
2.7,7,3231.871605,3076.7,1267.29,-2.828521649,-4.68E-11,-3.64E-12,-3.141592654,1.29E-12,2.15E-11,2,2
2.7,6,3070.861472,2934.475388,1523.090139,-2.790300032,0.119191922,0.000498189,3.098902081,-0.00017838,-0.022585684,2,2
2.8,1,1758.514135,-2579.421504,2879.700433,-0.949678944,0.179392748,0.001394606,2.954894226,-0.001442983,-0.037774239,1,1
2.8,2,1905.637032,-1409.110426,2958.331588,-0.79771248,0.349657984,0.004104085,2.728489267,-0.004711997,-0.0647272,1,1
2.8,3,1779.79017,-3667.445114,3103.212136,-0.971041197,0.43277134,0.004999608,2.722339021,-0.00470276,-0.071489706,1,1
2.8,4,936.717025,-1751.920966,2517.02131,-1.714951854,0.357711358,0.003939198,2.935957126,-0.002248575,-0.063490123,1,1
2.8,5,3334.827276,4432.758132,1709.130564,-2.417340641,0.238523806,0.001904547,3.043239037,-0.000784061,-0.044156819,2,2
2.8,16,4925.932798,4403.632744,2656.751962,0.215646999,0.335928477,2.63E-05,1.00010581,-6.59E-05,0.006306713,5,5
2.8,17,2496.67618,4865.996014,1860.862179,0.065791984,0.416676066,1.16E-05,1.414192046,-2.74E-05,0.00518313,5,5
2.8,15,3669.84511,4467.384406,2296.711223,0.333795978,0.187313044,5.00E-05,0.511371165,-0.00013053,0.00770579,5,5
2.8,14,-4492.5887,-966.6323633,2907.692706,0.439269634,-0.256440009,0.000295575,-0.52841305,-0.000581103,0.018296532,4,4
2.8,13,-2875.497843,-13.96395969,2897.891858,0.39880857,-0.445963083,8.59E-05,-0.84115954,-0.000143517,0.010499591,4,4
2.8,12,-2742.629278,-2269.23334,2489.702253,0.256649235,-0.108989605,0.000978304,-0.401585735,-0.003508557,-0.031952803,4,4
2.8,11,3481.411144,-2934.392416,622.8611998,-1.795075743,-0.331260112,0.004063387,-2.959107407,-0.00222604,0.064462211,3,3
2.8,10,3588.507025,-3569.469034,903.3813103,-1.714951853,-0.357711358,0.003939198,-2.935957126,-0.002248575,0.063490123,3,3
2.8,9,3568.731187,-2774.828256,410.4507806,-1.88069076,-0.283624727,0.002275619,-2.991911792,-0.001196461,0.0482802,3,3
2.8,8,3259.278685,2881.412644,855.8301667,-2.52729639,-0.131361533,0.000554746,-3.089662287,-0.000219206,0.023837357,2,2
2.8,7,3231.615014,3076.7,1267.29,-2.565907878,-6.70E-11,-4.33E-12,-3.141592654,1.69E-12,2.50E-11,2,2
2.8,6,3070.608685,2934.487357,1523.090167,-2.52729639,0.131361532,0.000554746,3.089662287,-0.000219206,-0.023837357,2,2
2.9,1,1758.433931,-2579.404389,2879.700508,-0.797858172,0.189999603,0.001512317,2.907809891,-0.001843907,-0.039332079,1,1
2.9,2,1905.568482,-1409.076921,2958.33179,-0.671181948,0.363327615,0.004069618,2.645434044,-0.005332177,-0.064441886,1,1
2.9,3,1779.704257,-3667.403077,3103.212372,-0.843712269,0.450929191,0.004747292,2.650759744,-0.004962349,-0.069683815,1,1
2.9,4,936.5628567,-1751.885562,2517.021514,-1.534358521,0.384968262,0.004102167,2.895768516,-0.002593159,-0.064800036,1,1
2.9,5,3334.608829,4432.781962,1709.130667,-2.18193645,0.260801494,0.002081771,3.022629508,-0.00094735,-0.046172637,2,2
2.9,16,4925.954477,4403.66696,2656.751963,0.214749873,0.343441771,1.22E-05,1.011990242,-3.01E-05,0.004907095,5,5
2.9,17,2496.68237,4866.038071,1860.862182,0.057488993,0.421203484,6.76E-05,1.435147053,-0.000159061,0.009079473,5,5
2.9,15,3669.879024,4467.403786,2296.711224,0.337623582,0.196443545,3.03E-05,0.526960945,-7.75E-05,0.006207124,5,5
2.9,14,-4492.545414,-966.6565412,2907.692722,0.437401988,-0.233519223,0.000332267,-0.490381144,-0.000670116,0.01921236,4,4
2.9,13,-2875.458887,-14.00672453,2897.891861,0.393476452,-0.424057912,9.50E-05,-0.822787672,-0.00016414,0.010832779,4,4
2.9,12,-2742.60311,-2269.245738,2489.702278,0.256464046,-0.134615206,0.00053947,-0.483360133,-0.001862509,-0.0240751,4,4
2.9,11,3481.251951,-2934.42515,622.8614201,-1.585055662,-0.359635701,0.004430415,-2.918478559,-0.002725827,0.067310728,3,3
2.9,10,3588.352857,-3569.504438,903.3815141,-1.534358521,-0.384968262,0.004102167,-2.895768516,-0.002593159,0.064800036,3,3
2.9,9,3568.560501,-2774.856431,410.4508973,-1.70283464,-0.305469312,0.002348692,-2.964091883,-0.001357612,0.049062018,3,3
2.9,8,3259.049291,2881.399499,855.8301968,-2.293220174,-0.143622982,0.000603569,-3.079044958,-0.000262682,0.024869249,2,2
2.9,7,3231.38178,3076.7,1267.29,-2.332344943,-8.64E-11,-9.02E-12,-3.141592654,3.87E-12,2.60E-11,2,2
2.9,6,3070.379291,2934.500501,1523.090197,-2.293220174,0.143622981,0.000603569,3.079044958,-0.000262682,-0.024869249,2,2
3,1,1758.367173,-2579.386438,2879.700588,-0.66220928,0.198757008,0.001618862,2.850005325,-0.002341442,-0.040683812,1,1
3,2,1905.51106,-1409.042298,2958.331985,-0.557728098,0.372636857,0.003923776,2.552575199,-0.00584968,-0.063265971,1,1
3,3,1779.629618,-3667.359477,3103.212586,-0.729527723,0.464043135,0.004328906,2.575060327,-0.005006744,-0.066580144,1,1
3,4,936.4247766,-1751.847626,2517.02172,-1.372106903,0.410099072,0.004138432,2.851161183,-0.002889793,-0.065100798,1,1
3,5,3334.411329,4432.807924,1709.130778,-1.971864543,0.282792343,0.002219316,2.999150239,-0.001114092,-0.047682591,2,2
3,16,4925.976178,4403.701785,2656.751962,0.216466298,0.348589302,-8.65E-06,1.015094443,2.11E-05,0.001298494,5,5
3,17,2496.68771,4866.080544,1860.862185,0.048908528,0.425285056,7.16E-05,1.456297566,-0.000167215,0.009228305,5,5
3,15,3669.913328,4467.423893,2296.711224,0.342389666,0.202165528,-1.94E-07,0.533371203,4.87E-07,0.002598272,5,5
3,14,-4492.502092,-966.6784903,2907.692741,0.437859488,-0.210173518,0.000414073,-0.447521765,-0.000852547,0.021204043,4,4
3,13,-2875.420244,-14.047463,2897.891867,0.390906622,-0.403114234,0.000137524,-0.800771375,-0.000244913,0.012600113,4,4
3,12,-2742.576802,-2269.260506,2489.70229,0.258852678,-0.155044381,0.000264175,-0.539660075,-0.000875523,-0.017295638,4,4
3,11,3481.111436,-2934.460521,622.861654,-1.396575908,-0.386639864,0.004704536,-2.871508774,-0.003246493,0.069362673,3,3
3,10,3588.214777,-3569.542374,903.3817196,-1.372106902,-0.410099072,0.004138432,-2.851161182,-0.002889793,0.065100798,3,3
3,9,3568.405655,-2774.886654,410.4510138,-1.543723839,-0.325827542,0.002347793,-2.93357975,-0.001488077,0.049069624,3,3
3,8,3258.840719,2881.385177,855.8302286,-2.084833454,-0.155756685,0.000640447,-3.067021773,-0.000306339,0.025624006,2,2
3,7,3231.169318,3076.7,1267.29,-2.124619184,-1.04E-10,-5.40E-11,-3.141592654,2.54E-11,2.53E-11,2,2
3,6,3070.170719,2934.514823,1523.090229,-2.084833454,0.155756685,0.000640447,3.067021773,-0.00030634,-0.025624006,2,2
3.1,1,1758.312391,-2579.367842,2879.700674,-0.540951751,0.20541307,0.001725005,2.778685697,-0.002981132,-0.041974434,1,1
3.1,2,1905.463559,-1409.006928,2958.332168,-0.456537185,0.377632273,0.003692854,2.450504866,-0.006232796,-0.061370139,1,1
3.1,3,1779.565046,-3667.314773,3103.212773,-0.627941631,0.472010216,0.003789164,2.497018177,-0.004823483,-0.06234914,1,1
3.1,4,936.3011521,-1751.807384,2517.02192,-1.226233149,0.432332449,0.004033448,2.802630554,-0.003102129,-0.064292231,1,1
3.1,5,3334.232528,4432.835974,1709.130892,-1.784213332,0.304016906,0.002302504,2.972820863,-0.001272151,-0.048579772,2,2
3.1,16,4925.998211,4403.736961,2656.751961,0.221702001,0.350903589,1.36E-06,1.007319794,-3.27E-06,-0.003289624,5,5
3.1,17,2496.692334,4866.123375,1860.862186,0.043260316,0.428617872,2.57E-05,1.470207166,-5.97E-05,0.006108048,5,5
3.1,15,3669.948152,4467.444346,2296.711224,0.348721561,0.203721845,-2.55E-06,0.528718075,6.31E-06,-0.001915698,5,5
3.1,14,-4492.458546,-966.6981233,2907.692765,0.440083205,-0.185858421,0.000508764,-0.399603261,-0.001064983,0.023312877,4,4
3.1,13,-2875.381637,-14.08620986,2897.891877,0.391291447,-0.382211501,0.000207587,-0.773659967,-0.000379509,0.015112646,4,4
3.1,12,-2742.550169,-2269.277176,2489.702295,0.263030682,-0.171896162,0.000127052,-0.578846693,-0.000404341,-0.012545773,4,4
3.1,11,3480.987686,-2934.498368,622.8618952,-1.227090257,-0.41144791,0.004854293,-2.818069814,-0.003750692,0.07046114,3,3
3.1,10,3588.091152,-3569.582616,903.3819197,-1.226233149,-0.432332449,0.004033448,-2.802630554,-0.00310213,0.064292231,3,3
3.1,9,3568.264984,-2774.918763,410.4511262,-1.401323428,-0.344132254,0.002266607,-2.900781496,-0.001570802,0.048236403,3,3
3.1,8,3258.650686,2881.369699,855.8302614,-1.89926425,-0.167514604,0.000661356,-3.053620564,-0.00034687,0.026046758,2,2
3.1,7,3230.97533,3076.7,1267.29,-1.939872445,-1.14E-10,-6.02E-11,-3.141592654,3.10E-11,1.96E-11,2,2
3.1,6,3069.980686,2934.530301,1523.090261,-1.89926425,0.167514604,0.000661356,3.053620565,-0.00034687,-0.026046758,2,2
3.2,1,1758.268265,-2579.348799,2879.700766,-0.432488112,0.209947191,0.001854085,2.689660441,-0.003856605,-0.043471468,1,1
3.2,2,1905.424857,-1408.971142,2958.332337,-0.366882245,0.378841404,0.003413362,2.340158879,-0.006472284,-0.059002504,1,1
3.2,3,1779.509384,-3667.269412,3103.21293,-0.53853386,0.475203786,0.003189582,2.418585267,-0.004440936,-0.057283118,1,1
